{
	"type" : "FeatureCollection",
	"name" : "AU_VOTE_Aménagement_de_l'espace_public_et_mobilier_urbain",
	"features" : [
		{
			"type" : "Feature",
			"geometry" : {
				"type" : "Point",
				"coordinates" : [ 4.88835011146989, 43.927597908976644 ]
			},
			"properties" : {
				"name" : "Verdir la place des noces de feu",
				"description" : "** Thème :** Aménagement de l'espace public et mobilier urbain\n** Coût :** 5 000 €\n** Adresse :** rue des noces de feu à Montfavet\n** Description :** \n** Projet N° :** (2017) 42"
			}
		},
		{
			"type" : "Feature",
			"geometry" : {
				"type" : "Point",
				"coordinates" : [ 4.84824715004551, 43.94584637477021 ]
			},
			"properties" : {
				"name" : "Bien dans ma cabane (cabane dans les arbres)",
				"description" : "** Thème :** Aménagement de l'espace public et mobilier urbain\n** Coût :** 60 000 €\n** Adresse :** Parc Chico Mendes\n** Description :** \n** Projet N° :** (2017) 02"
			}
		},
		{
			"type" : "Feature",
			"geometry" : {
				"type" : "Point",
				"coordinates" : [ 4.878745055527494, 43.92534594367621 ]
			},
			"properties" : {
				"name" : "Aire de jeux \"Broquetons\"",
				"description" : "** Thème :** Aménagement de l'espace public et mobilier urbain\n** Coût :** 60 000 €\n** Adresse :** Montfavet\n** Description :** \n** Projet N° :** (2017) 12"
			}
		},
		{
			"type" : "Feature",
			"geometry" : {
				"type" : "Point",
				"coordinates" : [ 4.8393497046238245, 43.951273584939024 ]
			},
			"properties" : {
				"name" : "Mise en place d'agrés au parc massillargues",
				"description" : "** Thème :** Aménagement de l'espace public et mobilier urbain\n** Coût :** 60 000 €\n** Adresse :** parc du clos de massillargues\n** Description :** \n** Projet N° :** (2017) 03"
			}
		},
		{
			"type" : "Feature",
			"geometry" : {
				"type" : "Point",
				"coordinates" : [ 4.8023712281969955, 43.94912375575197 ]
			},
			"properties" : {
				"name" : "Rénovation et embellissement du passage de l'Oratoire",
				"description" : "** Thème :** Aménagement de l'espace public et mobilier urbain\n** Coût :** 80 000 €\n** Adresse :** Passage de l'Oratoire\n** Description :** \n** Projet N° :** (2017) 07"
			}
		},
		{
			"type" : "Feature",
			"geometry" : {
				"type" : "Point",
				"coordinates" : [ 4.8703856467548405, 43.93520516247011 ]
			},
			"properties" : {
				"name" : "Aménagement de la cour médiévale ",
				"description" : "** Thème :** Aménagement de l'espace public et mobilier urbain\n** Coût :** 80 000 €\n** Adresse :** Montfavet\n** Description :** \n** Projet N° :** (2017) 08"
			}
		},
		{
			"type" : "Feature",
			"geometry" : {
				"type" : "Point",
				"coordinates" : [ 4.871299716836484, 43.93556856902832 ]
			},
			"properties" : {
				"name" : "Aménagement de la place de l'église de Montfavet",
				"description" : "** Thème :** Aménagement de l'espace public et mobilier urbain\n** Coût :** 30 000 €\n** Adresse :** Montfavet\n** Description :** \n** Projet N° :** (2017) 09"
			}
		},
		{
			"type" : "Feature",
			"geometry" : {
				"type" : "Point",
				"coordinates" : [ 4.872939032230992, 43.93535659235698 ]
			},
			"properties" : {
				"name" : "Panneaux défilants pour l'information des habitants du quartier",
				"description" : "** Thème :** Aménagement de l'espace public et mobilier urbain\n** Coût :** 20 000 €\n** Adresse :** Montfavet\n** Description :** \n** Projet N° :** (2017) 10"
			}
		},
		{
			"type" : "Feature",
			"geometry" : {
				"type" : "Point",
				"coordinates" : [ 4.806627348881374, 43.941341894566136 ]
			},
			"properties" : {
				"name" : "Aménager le tunnel avenue Monclar et le boulevard Champfleury",
				"description" : "** Thème :** Aménagement de l'espace public et mobilier urbain\n** Coût :** \n** Adresse :** tunnel de l'avenue Monclar \nboulevard Champfleury\n** Description :** \n** Projet N° :** (2017) 22"
			}
		},
		{
			"type" : "Feature",
			"geometry" : {
				"type" : "Point",
				"coordinates" : [ 4.800557752035147, 43.93011698243373 ]
			},
			"properties" : {
				"name" : "Aire de jeux ",
				"description" : "** Thème :** Aménagement de l'espace public et mobilier urbain\n** Coût :** 60 000 €\n** Adresse :** rue Lulli - Quartier Monclar Sud\n** Description :** \n** Projet N° :** (2017) 18"
			}
		},
		{
			"type" : "Feature",
			"geometry" : {
				"type" : "Point",
				"coordinates" : [ 4.820083103550269, 43.94535676918876 ]
			},
			"properties" : {
				"name" : "Rénovation sous le pont ferroviaire St Jean chemin des Canaux",
				"description" : "** Thème :** Aménagement de l'espace public et mobilier urbain\n** Coût :** 50 000 €\n** Adresse :** Passage sous le pont ferroviaire st jean chemin des canaux\n** Description :** \n** Projet N° :** (2017) 16"
			}
		},
		{
			"type" : "Feature",
			"geometry" : {
				"type" : "Point",
				"coordinates" : [ 4.810295918865595, 43.9481068819543 ]
			},
			"properties" : {
				"name" : "Jeux d'eau",
				"description" : "** Thème :** Aménagement de l'espace public et mobilier urbain\n** Coût :** 120 000 €\n** Adresse :** Place Pie\n** Description :** \n** Projet N° :** (2017) 06"
			}
		},
		{
			"type" : "Feature",
			"geometry" : {
				"type" : "Point",
				"coordinates" : [ 4.8121996911479235, 43.94350727997171 ]
			},
			"properties" : {
				"name" : "Aménagement apaisé d'un itinéraire vert de sortie de la ville",
				"description" : "** Thème :** Aménagement de l'espace public et mobilier urbain\n** Coût :** 130 000 €\n** Adresse :** rue du portail Magnanen\nrue pétramale\nplace des études\nplace noel Biret\nplace Damette\n** Description :** \n** Projet N° :** (2017) 32"
			}
		},
		{
			"type" : "Feature",
			"geometry" : {
				"type" : "Point",
				"coordinates" : [ 4.825213343214173, 43.943550001398485 ]
			},
			"properties" : {
				"name" : "Un Jardin partagé place Michel Goutier et le long du chemin des canaux",
				"description" : "** Thème :** Aménagement de l'espace public et mobilier urbain\n** Coût :** 3 000 €\n** Adresse :** Souvine\n** Description :** \n** Projet N° :** (2017) 11"
			}
		},
		{
			"type" : "Feature",
			"geometry" : {
				"type" : "Point",
				"coordinates" : [ 4.828086544770115, 43.94695668649334 ]
			},
			"properties" : {
				"name" : "Aménagement d'un lieu convivial",
				"description" : "** Thème :** Aménagement de l'espace public et mobilier urbain\n** Coût :** 5 000 €\n** Adresse :** Quartier St Jean\n** Description :** \n** Projet N° :** (2017) 13"
			}
		},
		{
			"type" : "Feature",
			"geometry" : {
				"type" : "Point",
				"coordinates" : [ 4.8186712134459215, 43.94713928987191 ]
			},
			"properties" : {
				"name" : "Rénovation place Chabran préfecture",
				"description" : "** Thème :** Aménagement de l'espace public et mobilier urbain\n** Coût :** 12 000 €\n** Adresse :** Caserne Chabran et Université\n** Description :** \n** Projet N° :** (2017) 17"
			}
		},
		{
			"type" : "Feature",
			"geometry" : {
				"type" : "Point",
				"coordinates" : [ 4.826694517696488, 43.93532333246931 ]
			},
			"properties" : {
				"name" : "Fresques et graph sportifs muraux",
				"description" : "** Thème :** Aménagement de l'espace public et mobilier urbain\n** Coût :** 10 000 €\n** Adresse :** stade Dulcy\n** Description :** \n** Projet N° :** (2017) 26"
			}
		},
		{
			"type" : "Feature",
			"geometry" : {
				"type" : "Point",
				"coordinates" : [ 4.815656986475939, 43.94498427956501 ]
			},
			"properties" : {
				"name" : "Proposition aménagement d'une placette au bord de l'eau",
				"description" : "** Thème :** Aménagement de l'espace public et mobilier urbain\n** Coût :** 23 000 €\n** Adresse :** rue des teinturiers\n** Description :** \n** Projet N° :** (2017) 04"
			}
		},
		{
			"type" : "Feature",
			"geometry" : {
				"type" : "Point",
				"coordinates" : [ 4.798892644378981, 43.928089574901605 ]
			},
			"properties" : {
				"name" : "Implantation arbres cour d'école ",
				"description" : "** Thème :** Aménagement de l'espace public et mobilier urbain\n** Coût :** 1 500 €\n** Adresse :** st Roch\n** Description :** \n** Projet N° :** (2017) 54"
			}
		},
		{
			"type" : "Feature",
			"geometry" : {
				"type" : "Point",
				"coordinates" : [ 4.838743356493033, 43.95122642950829 ]
			},
			"properties" : {
				"name" : "Aires de jeux pour enfants ",
				"description" : "** Thème :** Aménagement de l'espace public et mobilier urbain\n** Coût :** 60 000 €\n** Adresse :** Clos de massillargues\n** Description :** \n** Projet N° :** (2017) 14"
			}
		},
		{
			"type" : "Feature",
			"geometry" : {
				"type" : "Point",
				"coordinates" : [ 4.7978157451938275, 43.931822344922985 ]
			},
			"properties" : {
				"name" : "Installation de  jeux d'eau pour éviter l'ouverture sauvage des bouches à incendie",
				"description" : "** Thème :** Aménagement de l'espace public et mobilier urbain\n** Coût :** 100 000 €\n** Adresse :** quartier Monclar \n** Description :** \n** Projet N° :** (2017) 24"
			}
		},
		{
			"type" : "Feature",
			"geometry" : {
				"type" : "Point",
				"coordinates" : [ 4.810664862720185, 43.941695691161996 ]
			},
			"properties" : {
				"name" : "Réhabilitation du Pont situé au début de l'avenue de l'Arrousaire",
				"description" : "** Thème :** Aménagement de l'espace public et mobilier urbain\n** Coût :** 50 000 €\n** Adresse :** avenue de l'Arrousaire\n** Description :** \n** Projet N° :** (2017) 25"
			}
		},
		{
			"type" : "Feature",
			"geometry" : {
				"type" : "Point",
				"coordinates" : [ 4.843435884529254, 43.91874584142584 ]
			},
			"properties" : {
				"name" : "Installation de petits panneaux retraçant l'histoire du patrimoine \nInstaller des plaques avec le nom des Ponts",
				"description" : "** Thème :** Aménagement de l'espace public et mobilier urbain\n** Coût :** 11 000 €\n** Adresse :** ceinture verte\n** Description :** \n** Projet N° :** (2017) 28"
			}
		}
	]
}