{
	"type" : "FeatureCollection",
	"name" : "Output",
	"features" : [
		{
			"type" : "Feature",
			"geometry" : {
				"type" : "Point",
				"coordinates" : [ 4.8060381674, 43.9445299344 ]
			},
			"properties" : {
				"name" : "Reggae / Roots/ Dub - 20h-21h30 : Metis syndicate",
				"description" : "**Animations :**\nReggae / Roots/ Dub\n** Conditions d'accès :**\n20h-21h30\n**Adresse : **\nSquare Agricol Perdiguier\n"
			}
		},
		{
			"type" : "Feature",
			"geometry" : {
				"type" : "Point",
				"coordinates" : [ 4.8060381674, 43.9445299344 ]
			},
			"properties" : {
				"name" : "Reggae / Roots/ Dub - 21h30-23h : Shaian",
				"description" : "**Animations :**\nReggae / Roots/ Dub\n** Conditions d'accès :**\n21h30-23h\n**Adresse : **\nSquare Agricol Perdiguier\n"
			}
		},
		{
			"type" : "Feature",
			"geometry" : {
				"type" : "Point",
				"coordinates" : [ 4.8072595404, 43.9466685568 ]
			},
			"properties" : {
				"name" : " - 19h-20h : Charlotte Adrien",
				"description" : "** Conditions d'accès :**\n19h-20h\n**Adresse : **\nPlace Saint Didier\n"
			}
		},
		{
			"type" : "Feature",
			"geometry" : {
				"type" : "Point",
				"coordinates" : [ 4.8072595404, 43.9466685568 ]
			},
			"properties" : {
				"name" : "slam et spoken word  - 20h30-  : Dizzylez, Romain Cas, Vincent Truel",
				"description" : "**Animations :**\nslam et spoken word \n** Conditions d'accès :**\n20h30- \n**Adresse : **\nPlace Saint Didier\n"
			}
		},
		{
			"type" : "Feature",
			"geometry" : {
				"type" : "Point",
				"coordinates" : [ 4.8072595404, 43.9466685568 ]
			},
			"properties" : {
				"name" : "slam - 00h : Scène ouverte",
				"description" : "**Animations :**\nslam\n** Conditions d'accès :**\n00h\n**Adresse : **\nPlace Saint Didier\n"
			}
		},
		{
			"type" : "Feature",
			"geometry" : {
				"type" : "Point",
				"coordinates" : [ 4.8464575141, 43.9464149785 ]
			},
			"properties" : {
				"name" : "Chants - 10h-16h : Chorales scolaires",
				"description" : "**Animations :**\nChants\n** Conditions d'accès :**\n10h-16h\n**Adresse : **\nParc Chico Mendès\n"
			}
		},
		{
			"type" : "Feature",
			"geometry" : {
				"type" : "Point",
				"coordinates" : [ 4.8464575141, 43.9464149785 ]
			},
			"properties" : {
				"name" : "Percussions - 19h-19h30 : Les amis de Theodore",
				"description" : "**Animations :**\nPercussions\n** Conditions d'accès :**\n19h-19h30\n**Adresse : **\nParc Chico Mendès\n"
			}
		},
		{
			"type" : "Feature",
			"geometry" : {
				"type" : "Point",
				"coordinates" : [ 4.8464575141, 43.9464149785 ]
			},
			"properties" : {
				"name" : "Musique urbaine / rap / Hip Hop - 20h-20h30 : DCN-GANG",
				"description" : "**Animations :**\nMusique urbaine / rap / Hip Hop\n** Conditions d'accès :**\n20h-20h30\n**Adresse : **\nParc Chico Mendès\n"
			}
		},
		{
			"type" : "Feature",
			"geometry" : {
				"type" : "Point",
				"coordinates" : [ 4.8464575141, 43.9464149785 ]
			},
			"properties" : {
				"name" : "Musique urbaine / rap / Hip Hop - 20h30-21h15 : Skwang",
				"description" : "**Animations :**\nMusique urbaine / rap / Hip Hop\n** Conditions d'accès :**\n20h30-21h15\n**Adresse : **\nParc Chico Mendès\n"
			}
		},
		{
			"type" : "Feature",
			"geometry" : {
				"type" : "Point",
				"coordinates" : [ 4.8060381674, 43.9445299344 ]
			},
			"properties" : {
				"name" : "Chants - 10h-16h : Chorales scolaires",
				"description" : "**Animations :**\nChants\n** Conditions d'accès :**\n10h-16h\n**Adresse : **\nSquare Agricol Perdiguier\n"
			}
		},
		{
			"type" : "Feature",
			"geometry" : {
				"type" : "Point",
				"coordinates" : [ 4.8060381674, 43.9445299344 ]
			},
			"properties" : {
				"name" : "Chanson française - 18h-19h : Sophie Midy",
				"description" : "**Animations :**\nChanson française\n** Conditions d'accès :**\n18h-19h\n**Adresse : **\nSquare Agricol Perdiguier\n"
			}
		},
		{
			"type" : "Feature",
			"geometry" : {
				"type" : "Point",
				"coordinates" : [ 4.8060381674, 43.9445299344 ]
			},
			"properties" : {
				"name" : "Reprises rock - 19h-20h : Jeanie'Schaker",
				"description" : "**Animations :**\nReprises rock\n** Conditions d'accès :**\n19h-20h\n**Adresse : **\nSquare Agricol Perdiguier\n"
			}
		},
		{
			"type" : "Feature",
			"geometry" : {
				"type" : "Point",
				"coordinates" : [ 4.8192680975, 43.9509036343 ]
			},
			"properties" : {
				"name" : "Batucada - 19h-21h15 : Gang Jolo",
				"description" : "**Animations :**\nBatucada\n** Conditions d'accès :**\n19h-21h15\n**Adresse : **\nDéambulation Porte Saint Lazare Porte Limbert\n"
			}
		},
		{
			"type" : "Feature",
			"geometry" : {
				"type" : "Point",
				"coordinates" : [ 4.8149698804, 43.9438901628 ]
			},
			"properties" : {
				"name" : "Jazz manouche - 19h45-20h30 : La veille au soir",
				"description" : "**Animations :**\nJazz manouche\n** Conditions d'accès :**\n19h45-20h30\n**Adresse : **\nPorte Limbert\n"
			}
		},
		{
			"type" : "Feature",
			"geometry" : {
				"type" : "Point",
				"coordinates" : [ 4.7976106082, 43.9354018861 ]
			},
			"properties" : {
				"name" : "Musique du monde - 18h-20h : Association Vivre Ensemble à Avignon-Ouest",
				"description" : "**Animations :**\nMusique du monde\n** Conditions d'accès :**\n18h-20h\n**Adresse : **\nPré du Curé\n"
			}
		}
	]
}