{
	"type" : "FeatureCollection",
	"name" : "Output",
	"features" : [
		{
			"type" : "Feature",
			"geometry" : {
				"type" : "Point",
				"coordinates" : [ 4.8043866718, 43.949067395 ]
			},
			"properties" : {
				"name" : "19h45-21h15 : EVOM + CAMPANA (Polyphonies de la Rennaissance au XXIe siècle)",
				"description" : "**Animations :**\nPolyphonies de la Rennaissance au XXIe siècle\n** Conditions d'accès :**\n19h45-21h15\n**Adresse : **\nCollégiale Saint-Agricol\n"
			}
		},
		{
			"type" : "Feature",
			"geometry" : {
				"type" : "Point",
				"coordinates" : [ 4.8081760339, 43.9492314764 ]
			},
			"properties" : {
				"name" : "14h-15h : Musique Sacrée et Orgue en Avignon (Classique)",
				"description" : "**Animations :**\nClassique\n** Conditions d'accès :**\n14h-15h\n**Adresse : **\nBasilique Saint-Pierre\n"
			}
		},
		{
			"type" : "Feature",
			"geometry" : {
				"type" : "Point",
				"coordinates" : [ 4.8043866718, 43.949067395 ]
			},
			"properties" : {
				"name" : "15h-16h : Musique Sacrée et Orgue en Avignon (Classique)",
				"description" : "**Animations :**\nClassique\n** Conditions d'accès :**\n15h-16h\n**Adresse : **\nCollégiale Saint-Agricol\n"
			}
		},
		{
			"type" : "Feature",
			"geometry" : {
				"type" : "Point",
				"coordinates" : [ 4.8068834027, 43.9468856578 ]
			},
			"properties" : {
				"name" : "16h30-17h30 : Musique Sacrée et Orgue en Avignon (Classique)",
				"description" : "**Animations :**\nClassique\n** Conditions d'accès :**\n16h30-17h30\n**Adresse : **\nCollégiale Saint-Didier\n"
			}
		},
		{
			"type" : "Feature",
			"geometry" : {
				"type" : "Point",
				"coordinates" : [ 4.8074379529, 43.9515708813 ]
			},
			"properties" : {
				"name" : "17h45-18h45 : Musique Sacrée et Orgue en Avignon (Classique)",
				"description" : "**Animations :**\nClassique\n** Conditions d'accès :**\n17h45-18h45\n**Adresse : **\nBasilique Métropolitaine Notre-Dame-des-Doms\n"
			}
		},
		{
			"type" : "Feature",
			"geometry" : {
				"type" : "Point",
				"coordinates" : [ 4.813253467, 43.9507177011 ]
			},
			"properties" : {
				"name" : "19h-20h : Chœur A Piacere (Chorale)",
				"description" : "**Animations :**\nChorale\n** Conditions d'accès :**\n19h-20h\n**Adresse : **\nEglise Saint-Symphorien-Les-Carmes\n"
			}
		},
		{
			"type" : "Feature",
			"geometry" : {
				"type" : "Point",
				"coordinates" : [ 4.8068834027, 43.9468856578 ]
			},
			"properties" : {
				"name" : "20h-21h : Orchestre de Chambre d'Avignon (Classique)",
				"description" : "**Animations :**\nClassique\n** Conditions d'accès :**\n20h-21h\n**Adresse : **\nCollégiale Saint-Dider\n"
			}
		},
		{
			"type" : "Feature",
			"geometry" : {
				"type" : "Point",
				"coordinates" : [ 4.8068149025, 43.9461799652 ]
			},
			"properties" : {
				"name" : "18h : Cœur Homilius (Chant a capella)",
				"description" : "**Animations :**\nChant a capella\n** Conditions d'accès :**\n18h\n**Adresse : **\nMédithèque Ceccano\n"
			}
		},
		{
			"type" : "Feature",
			"geometry" : {
				"type" : "Point",
				"coordinates" : [ 4.8033463256, 43.9488578508 ]
			},
			"properties" : {
				"name" : "19h-20h : Les Maîtres-Chanteurs (Classique / Jazz / Pop)",
				"description" : "**Animations :**\nClassique / Jazz / Pop\n** Conditions d'accès :**\n19h-20h\n**Adresse : **\nChapelle de l'Oratoire\n"
			}
		},
		{
			"type" : "Feature",
			"geometry" : {
				"type" : "Point",
				"coordinates" : [ 4.8033463256, 43.9488578508 ]
			},
			"properties" : {
				"name" : "20h-20h45 : Méli Mélodie (Musique du monde)",
				"description" : "**Animations :**\nMusique du monde\n** Conditions d'accès :**\n20h-20h45\n**Adresse : **\nChapelle de l'Oratoire\n"
			}
		}
	]
}