{
	"type" : "FeatureCollection",
	"name" : "Output",
	"features" : [
		{
			"type" : "Feature",
			"geometry" : {
				"type" : "Point",
				"coordinates" : [ 4.8066248917, 43.9508166516 ]
			},
			"properties" : {
				"name" : "20h - 21h : Et si on chantait (Chœur de chansons contemporaines)",
				"description" : "**Animations :**\nChœur de chansons contemporaines\n** Conditions d'accès :**\n20h - 21h\n**Adresse : **\nPlace du Palais des Papes\n"
			}
		},
		{
			"type" : "Feature",
			"geometry" : {
				"type" : "Point",
				"coordinates" : [ 4.8066248917, 43.9508166516 ]
			},
			"properties" : {
				"name" : "21h00-23h : Chœur de France provence (Chansons pop rock )",
				"description" : "**Animations :**\nChansons pop rock \n** Conditions d'accès :**\n21h00-23h\n**Adresse : **\nPlace du Palais des Papes\n"
			}
		},
		{
			"type" : "Feature",
			"geometry" : {
				"type" : "Point",
				"coordinates" : [ 4.8028953255, 43.9502114289 ]
			},
			"properties" : {
				"name" : "20h-1h : Manhattan (multi styles)",
				"description" : "**Animations :**\nmulti styles\n** Conditions d'accès :**\n20h-1h\n**Adresse : **\nPlace Crillon\n"
			}
		},
		{
			"type" : "Feature",
			"geometry" : {
				"type" : "Point",
				"coordinates" : [ 4.805495006, 43.9480713682 ]
			},
			"properties" : {
				"name" : "14h- : Cyril Lefevre/club veroncelli (Latino)",
				"description" : "**Animations :**\nLatino\n** Conditions d'accès :**\n14h-\n**Adresse : **\nPlace Viala\n"
			}
		},
		{
			"type" : "Feature",
			"geometry" : {
				"type" : "Point",
				"coordinates" : [ 4.806004503, 43.9492965601 ]
			},
			"properties" : {
				"name" : "19h30-21h : Thursday Addict (Blues rock)",
				"description" : "**Animations :**\nBlues rock\n** Conditions d'accès :**\n19h30-21h\n**Adresse : **\nPlace de l'Horloge\n"
			}
		},
		{
			"type" : "Feature",
			"geometry" : {
				"type" : "Point",
				"coordinates" : [ 4.806004503, 43.9492965601 ]
			},
			"properties" : {
				"name" : "21h-22h : Simone (Post-Rock  / Rock progressif)",
				"description" : "**Animations :**\nPost-Rock  / Rock progressif\n** Conditions d'accès :**\n21h-22h\n**Adresse : **\nPlace de l'Horloge\n"
			}
		},
		{
			"type" : "Feature",
			"geometry" : {
				"type" : "Point",
				"coordinates" : [ 4.806004503, 43.9492965601 ]
			},
			"properties" : {
				"name" : "22h-23h30 : Eight Square Meters (Rock alternatif)",
				"description" : "**Animations :**\nRock alternatif\n** Conditions d'accès :**\n22h-23h30\n**Adresse : **\nPlace de l'Horloge\n"
			}
		},
		{
			"type" : "Feature",
			"geometry" : {
				"type" : "Point",
				"coordinates" : [ 4.8077162256, 43.949320769 ]
			},
			"properties" : {
				"name" : "21h-00h : GIG Street (Blues)",
				"description" : "**Animations :**\nBlues\n** Conditions d'accès :**\n21h-00h\n**Adresse : **\nPlace Saint Pierre\n"
			}
		},
		{
			"type" : "Feature",
			"geometry" : {
				"type" : "Point",
				"coordinates" : [ 4.8076009219, 43.9476118735 ]
			},
			"properties" : {
				"name" : "20h-21h : Masfaty (Reggae / Roots/ Dub)",
				"description" : "**Animations :**\nReggae / Roots/ Dub\n** Conditions d'accès :**\n20h-21h\n**Adresse : **\nPlace de la Principale\n"
			}
		},
		{
			"type" : "Feature",
			"geometry" : {
				"type" : "Point",
				"coordinates" : [ 4.8076009219, 43.9476118735 ]
			},
			"properties" : {
				"name" : "21h-23h : DJ TSHESCO (Hip-Hop / Electro House)",
				"description" : "**Animations :**\nHip-Hop / Electro House\n** Conditions d'accès :**\n21h-23h\n**Adresse : **\nPlace de la Principale\n"
			}
		},
		{
			"type" : "Feature",
			"geometry" : {
				"type" : "Point",
				"coordinates" : [ 4.8076535876, 43.9441043828 ]
			},
			"properties" : {
				"name" : "19h-21h : DJED (Pop-Rock)",
				"description" : "**Animations :**\nPop-Rock\n** Conditions d'accès :**\n19h-21h\n**Adresse : **\nPlace des Corps-Saints\n"
			}
		},
		{
			"type" : "Feature",
			"geometry" : {
				"type" : "Point",
				"coordinates" : [ 4.8076535876, 43.9441043828 ]
			},
			"properties" : {
				"name" : "21h-00h : The Oaks (Blues)",
				"description" : "**Animations :**\nBlues\n** Conditions d'accès :**\n21h-00h\n**Adresse : **\nPlace des Corps-Saints\n"
			}
		},
		{
			"type" : "Feature",
			"geometry" : {
				"type" : "Point",
				"coordinates" : [ 4.810435198, 43.9482926166 ]
			},
			"properties" : {
				"name" : "19h-19h45 : Gospel'Art (Gospel)",
				"description" : "**Animations :**\nGospel\n** Conditions d'accès :**\n19h-19h45\n**Adresse : **\nPlace Pie / Bar Au Fût et À Mesure\n"
			}
		},
		{
			"type" : "Feature",
			"geometry" : {
				"type" : "Point",
				"coordinates" : [ 4.810435198, 43.9482926166 ]
			},
			"properties" : {
				"name" : "19h45-01h : Puzzle (Orchestre rock)",
				"description" : "**Animations :**\nOrchestre rock\n** Conditions d'accès :**\n19h45-01h\n**Adresse : **\nPlace Pie / Bar Au Fût et À Mesure\n"
			}
		},
		{
			"type" : "Feature",
			"geometry" : {
				"type" : "Point",
				"coordinates" : [ 4.810435198, 43.9482926166 ]
			},
			"properties" : {
				"name" : "16h-18h : Delta Sunrise (Blues)",
				"description" : "**Animations :**\nBlues\n** Conditions d'accès :**\n16h-18h\n**Adresse : **\nPlace Pie / Bar Au Fût et À Mesure\n"
			}
		},
		{
			"type" : "Feature",
			"geometry" : {
				"type" : "Point",
				"coordinates" : [ 4.810435198, 43.9482926166 ]
			},
			"properties" : {
				"name" : "20h-23h  : Elephantz Records (Electro)",
				"description" : "**Animations :**\nElectro\n** Conditions d'accès :**\n20h-23h \n**Adresse : **\nPlace Pie / Bar Au Fût et À Mesure\n"
			}
		},
		{
			"type" : "Feature",
			"geometry" : {
				"type" : "Point",
				"coordinates" : [ 4.8130003058, 43.9503755724 ]
			},
			"properties" : {
				"name" : "15h30 : Ecole Maternelle Persil (Chorale)",
				"description" : "**Animations :**\nChorale\n** Conditions d'accès :**\n15h30\n**Adresse : **\nPlace des Carmes\n"
			}
		},
		{
			"type" : "Feature",
			"geometry" : {
				"type" : "Point",
				"coordinates" : [ 4.8130003058, 43.9503755724 ]
			},
			"properties" : {
				"name" : "19h-22h : Ophium (Pop-Rock/Funk)",
				"description" : "**Animations :**\nPop-Rock/Funk\n** Conditions d'accès :**\n19h-22h\n**Adresse : **\nPlace des Carmes\n"
			}
		},
		{
			"type" : "Feature",
			"geometry" : {
				"type" : "Point",
				"coordinates" : [ 4.8135011428, 43.9457345428 ]
			},
			"properties" : {
				"name" : "19h-00h : Association du Quartier desTeinturiers (Mutli styles)",
				"description" : "**Animations :**\nMutli styles\n** Conditions d'accès :**\n19h-00h\n**Adresse : **\nPlace de la Londe\n"
			}
		},
		{
			"type" : "Feature",
			"geometry" : {
				"type" : "Point",
				"coordinates" : [ 4.808468073, 43.9512375168 ]
			},
			"properties" : {
				"name" : "19h-22h : Sam Hookey (Pop-Folk)",
				"description" : "**Animations :**\nPop-Folk\n** Conditions d'accès :**\n19h-22h\n**Adresse : **\nPlace Maria Casares\n"
			}
		},
		{
			"type" : "Feature",
			"geometry" : {
				"type" : "Point",
				"coordinates" : [ 4.8123597812, 43.9496793694 ]
			},
			"properties" : {
				"name" : "21h30-22h15 : Dynamit' Dog (Rock  Alternatif)",
				"description" : "**Animations :**\nRock  Alternatif\n** Conditions d'accès :**\n21h30-22h15\n**Adresse : **\nMon Bar\n"
			}
		},
		{
			"type" : "Feature",
			"geometry" : {
				"type" : "Point",
				"coordinates" : [ 4.8116602166, 43.9493758978 ]
			},
			"properties" : {
				"name" : "20h30-21h30 : Decibell (Pop-Rock)",
				"description" : "**Animations :**\nPop-Rock\n** Conditions d'accès :**\n20h30-21h30\n**Adresse : **\nBeer O Clock\n"
			}
		},
		{
			"type" : "Feature",
			"geometry" : {
				"type" : "Point",
				"coordinates" : [ 4.8116602166, 43.9493758978 ]
			},
			"properties" : {
				"name" : "21h30-00h : Crystal Orchestra (Variétés Internationales)",
				"description" : "**Animations :**\nVariétés Internationales\n** Conditions d'accès :**\n21h30-00h\n**Adresse : **\nBeer O Clock\n"
			}
		},
		{
			"type" : "Feature",
			"geometry" : {
				"type" : "Point",
				"coordinates" : [ 4.8116602166, 43.9493758978 ]
			},
			"properties" : {
				"name" : "00h-01h : Acid Portal (Electro)",
				"description" : "**Animations :**\nElectro\n** Conditions d'accès :**\n00h-01h\n**Adresse : **\nBeer O Clock\n"
			}
		},
		{
			"type" : "Feature",
			"geometry" : {
				"type" : "Point",
				"coordinates" : [ 4.8108320586, 43.9468023719 ]
			},
			"properties" : {
				"name" : "19h-01h : Harlem Funk Trotters (Soul Funk)",
				"description" : "**Animations :**\nSoul Funk\n** Conditions d'accès :**\n19h-01h\n**Adresse : **\nPub Z\n"
			}
		},
		{
			"type" : "Feature",
			"geometry" : {
				"type" : "Point",
				"coordinates" : [ 4.8076935549, 43.9528281911 ]
			},
			"properties" : {
				"name" : "17h-18h30 : Les Crocos (Bal pour enfants)",
				"description" : "**Animations :**\nBal pour enfants\n** Conditions d'accès :**\n17h-18h30\n**Adresse : **\nJardin du rocher des doms\n"
			}
		},
		{
			"type" : "Feature",
			"geometry" : {
				"type" : "Point",
				"coordinates" : [ 4.8076935549, 43.9528281911 ]
			},
			"properties" : {
				"name" : "20h-21h : Color Makers (Composition Jazz Electro)",
				"description" : "**Animations :**\nComposition Jazz Electro\n** Conditions d'accès :**\n20h-21h\n**Adresse : **\nJardin du rocher des doms\n"
			}
		},
		{
			"type" : "Feature",
			"geometry" : {
				"type" : "Point",
				"coordinates" : [ 4.8054521511, 43.9435464813 ]
			},
			"properties" : {
				"name" : "20h-00h : FTB production: Mc, Hurricane Hi-Fi (Reggae / Roots/ Dub)",
				"description" : "**Animations :**\nReggae / Roots/ Dub\n** Conditions d'accès :**\n20h-00h\n**Adresse : **\nCours Jean-Jaurès\n"
			}
		},
		{
			"type" : "Feature",
			"geometry" : {
				"type" : "Point",
				"coordinates" : [ 4.8105423903, 43.947489826 ]
			},
			"properties" : {
				"name" : "16h-00h : DJ set (Multi-style)",
				"description" : "**Animations :**\nMulti-style\n** Conditions d'accès :**\n16h-00h\n**Adresse : **\nRue de l'Olivier\n"
			}
		},
		{
			"type" : "Feature",
			"geometry" : {
				"type" : "Point",
				"coordinates" : [ 4.8092689414, 43.945714264 ]
			},
			"properties" : {
				"name" : "21h30-22h30 : Mi Va Togo (Musique et danse africaine)",
				"description" : "**Animations :**\nMusique et danse africaine\n** Conditions d'accès :**\n21h30-22h30\n**Adresse : **\nPlace Pétramale\n"
			}
		},
		{
			"type" : "Feature",
			"geometry" : {
				"type" : "Point",
				"coordinates" : [ 4.8130787427, 43.9450759857 ]
			},
			"properties" : {
				"name" : "21h-21h45 : Oumpack (Batucada)",
				"description" : "**Animations :**\nBatucada\n** Conditions d'accès :**\n21h-21h45\n**Adresse : **\nRue des teinturiers\n"
			}
		}
	]
}